{
"type": "FeatureCollection",
"crs": { "type": "name", "properties": { "name": "urn:ogc:def:crs:OGC:1.3:CRS84" } },
"features": [
{ "type": "Feature", "properties": { "NAME": "淡水站", "LOC": "原有台鐵淡水站附近", "id": 0 }, "geometry": { "type": "Point", "coordinates": [ 121.445258308188428, 25.167993283329309 ] } },
{ "type": "Feature", "properties": { "NAME": "紅樹林站", "LOC": "現有外北勢溪附近", "id": 1 }, "geometry": { "type": "Point", "coordinates": [ 121.458954512046162, 25.154114157533648 ] } },
{ "type": "Feature", "properties": { "NAME": "竹圍站", "LOC": "原有台鐵竹圍站附近", "id": 2 }, "geometry": { "type": "Point", "coordinates": [ 121.459456451810809, 25.136949033211266 ] } },
{ "type": "Feature", "properties": { "NAME": "關渡站", "LOC": "關渡國小附近近靠原台鐵淡水線", "id": 3 }, "geometry": { "type": "Point", "coordinates": [ 121.467199724937188, 25.125784713139499 ] } },
{ "type": "Feature", "properties": { "NAME": "忠義站", "LOC": "中央北路四段 (捷運系統北投機廠西側)", "id": 4 }, "geometry": { "type": "Point", "coordinates": [ 121.473122240970326, 25.130750885216592 ] } },
{ "type": "Feature", "properties": { "NAME": "新北投站", "LOC": "原台鐵新北投站附近", "id": 5 }, "geometry": { "type": "Point", "coordinates": [ 121.502531171385371, 25.136936401898982 ] } },
{ "type": "Feature", "properties": { "NAME": "北投站", "LOC": "原台鐵北投站址", "id": 6 }, "geometry": { "type": "Point", "coordinates": [ 121.498591159862443, 25.131907048775624 ] } },
{ "type": "Feature", "properties": { "NAME": "奇岩站", "LOC": "原台鐵淡水線與三合街交叉口", "id": 7 }, "geometry": { "type": "Point", "coordinates": [ 121.501082982431413, 25.125584855497344 ] } },
{ "type": "Feature", "properties": { "NAME": "唭哩岸站", "LOC": "原台鐵淡水線與東華街２段３００巷交叉口", "id": 8 }, "geometry": { "type": "Point", "coordinates": [ 121.506264810466533, 25.120857945623705 ] } },
{ "type": "Feature", "properties": { "NAME": "石牌站", "LOC": "原台鐵淡水線與石牌路交叉口", "id": 9 }, "geometry": { "type": "Point", "coordinates": [ 121.515642284870296, 25.114420305321378 ] } },
{ "type": "Feature", "properties": { "NAME": "明德站", "LOC": "原台鐵淡水線與明德路交叉口", "id": 10 }, "geometry": { "type": "Point", "coordinates": [ 121.518820409163794, 25.109793935885506 ] } },
{ "type": "Feature", "properties": { "NAME": "芝山站", "LOC": "原台鐵淡水線與福國路交叉口", "id": 11 }, "geometry": { "type": "Point", "coordinates": [ 121.522542284583153, 25.10281102722767 ] } },
{ "type": "Feature", "properties": { "NAME": "圓山站", "LOC": "原台鐵淡水線與酒泉街交叉口", "id": 12 }, "geometry": { "type": "Point", "coordinates": [ 121.520131784780546, 25.071380222093627 ] } },
{ "type": "Feature", "properties": { "NAME": "劍潭站", "LOC": "原台鐵淡水線與９６號計劃道路交叉口", "id": 13 }, "geometry": { "type": "Point", "coordinates": [ 121.524969141643254, 25.084236417468603 ] } },
{ "type": "Feature", "properties": { "NAME": "士林站", "LOC": "原台鐵士林站址", "id": 14 }, "geometry": { "type": "Point", "coordinates": [ 121.526191542039413, 25.093473979666204 ] } },
{ "type": "Feature", "properties": { "NAME": "民權西路站", "LOC": "原台鐵淡水線與民權西路交叉口", "id": 15 }, "geometry": { "type": "Point", "coordinates": [ 121.51936274027932, 25.06287666536328 ] } },
{ "type": "Feature", "properties": { "NAME": "雙連站", "LOC": "原台鐵淡水線與民生西路交叉口", "id": 16 }, "geometry": { "type": "Point", "coordinates": [ 121.520709993016169, 25.057646860243686 ] } },
{ "type": "Feature", "properties": { "NAME": "中山站", "LOC": "原台鐵淡水線與南京西路交叉口", "id": 17 }, "geometry": { "type": "Point", "coordinates": [ 121.520396899948054, 25.052675664748087 ] } },
{ "type": "Feature", "properties": { "NAME": "臺大醫院站", "LOC": "公園路與常德街口", "id": 18 }, "geometry": { "type": "Point", "coordinates": [ 121.516220077324306, 25.041827029154803 ] } },
{ "type": "Feature", "properties": { "NAME": "動物園站", "LOC": "新光路木柵動物園正門口右側", "id": 19 }, "geometry": { "type": "Point", "coordinates": [ 121.579325076291383, 24.998277485280163 ] } },
{ "type": "Feature", "properties": { "NAME": "木柵站", "LOC": "木柵路４段與軍功路交叉口附近", "id": 20 }, "geometry": { "type": "Point", "coordinates": [ 121.573175981861382, 24.998253352528319 ] } },
{ "type": "Feature", "properties": { "NAME": "萬芳社區站", "LOC": "萬芳路南側臨近萬和街口", "id": 21 }, "geometry": { "type": "Point", "coordinates": [ 121.568066678678647, 24.998607713500029 ] } },
{ "type": "Feature", "properties": { "NAME": "萬芳醫院站", "LOC": "興隆路３段北側警察專科學校附近", "id": 22 }, "geometry": { "type": "Point", "coordinates": [ 121.558028561334552, 24.999504452038678 ] } },
{ "type": "Feature", "properties": { "NAME": "辛亥站", "LOC": "辛亥站西側臨近萬美街口處", "id": 23 }, "geometry": { "type": "Point", "coordinates": [ 121.557010243552995, 25.005383562847879 ] } },
{ "type": "Feature", "properties": { "NAME": "麟光站", "LOC": "和平東路底麟光新村西側", "id": 24 }, "geometry": { "type": "Point", "coordinates": [ 121.558827032037456, 25.018523230734029 ] } },
{ "type": "Feature", "properties": { "NAME": "六張犁站", "LOC": "和平東路與基隆路口附近之和平東路上", "id": 25 }, "geometry": { "type": "Point", "coordinates": [ 121.553057973180856, 25.02384487573309 ] } },
{ "type": "Feature", "properties": { "NAME": "科技大樓站", "LOC": "復興南路與和平東路口附近之復興南路上", "id": 26 }, "geometry": { "type": "Point", "coordinates": [ 121.543451471945417, 25.025991976476917 ] } },
{ "type": "Feature", "properties": { "NAME": "大安站", "LOC": "復興南路與信義路交叉口", "id": 27 }, "geometry": { "type": "Point", "coordinates": [ 121.543626108364435, 25.032820573073622 ] } },
{ "type": "Feature", "properties": { "NAME": "中山國中站", "LOC": "復興北路介於錦州街與民權東路之間", "id": 28 }, "geometry": { "type": "Point", "coordinates": [ 121.544216438630343, 25.06080611270264 ] } },
{ "type": "Feature", "properties": { "NAME": "南港站", "LOC": "南港火車站旁", "id": 29 }, "geometry": { "type": "Point", "coordinates": [ 121.607634208347406, 25.052178378321742 ] } },
{ "type": "Feature", "properties": { "NAME": "昆陽站", "LOC": "忠孝東路與向陽路口", "id": 30 }, "geometry": { "type": "Point", "coordinates": [ 121.593020112386327, 25.050188656620318 ] } },
{ "type": "Feature", "properties": { "NAME": "後山埤站", "LOC": "忠孝東路與永吉路口", "id": 31 }, "geometry": { "type": "Point", "coordinates": [ 121.582004076982784, 25.04427855362805 ] } },
{ "type": "Feature", "properties": { "NAME": "永春站", "LOC": "虎林街與忠孝東路口", "id": 32 }, "geometry": { "type": "Point", "coordinates": [ 121.575872858647386, 25.040863616679214 ] } },
{ "type": "Feature", "properties": { "NAME": "市政府站", "LOC": "基隆路與忠孝東路口", "id": 33 }, "geometry": { "type": "Point", "coordinates": [ 121.565259454056516, 25.041178891090372 ] } },
{ "type": "Feature", "properties": { "NAME": "國父紀念館", "LOC": "忠孝東路與光復南路交叉口", "id": 34 }, "geometry": { "type": "Point", "coordinates": [ 121.557688949267828, 25.041347467452923 ] } },
{ "type": "Feature", "properties": { "NAME": "忠孝敦化站", "LOC": "忠孝東路統領商圈附近", "id": 35 }, "geometry": { "type": "Point", "coordinates": [ 121.549655956280787, 25.041494800943635 ] } },
{ "type": "Feature", "properties": { "NAME": "忠孝復興站", "LOC": "忠孝東路與復興南路交叉口", "id": 36 }, "geometry": { "type": "Point", "coordinates": [ 121.543793999160698, 25.041602162432323 ] } },
{ "type": "Feature", "properties": { "NAME": "台電大樓站", "LOC": "羅斯福路與師大路交叉口 (古亭國小前)", "id": 37 }, "geometry": { "type": "Point", "coordinates": [ 121.528187325800729, 25.020692681447557 ] } },
{ "type": "Feature", "properties": { "NAME": "景美站", "LOC": "羅斯福路與景福街交叉口 (景美分局前)", "id": 38 }, "geometry": { "type": "Point", "coordinates": [ 121.540920992125223, 24.993178356596115 ] } },
{ "type": "Feature", "properties": { "NAME": "頂溪站", "LOC": "永和路與竹林路交口", "id": 39 }, "geometry": { "type": "Point", "coordinates": [ 121.515449880246976, 25.013618645684314 ] } },
{ "type": "Feature", "properties": { "NAME": "江子翠站", "LOC": "文化路與雙十路交叉口", "id": 40 }, "geometry": { "type": "Point", "coordinates": [ 121.472236760600126, 25.029904942785794 ] } },
{ "type": "Feature", "properties": { "NAME": "龍山寺站", "LOC": "和平西路三段與康定路交叉口", "id": 41 }, "geometry": { "type": "Point", "coordinates": [ 121.501220861890303, 25.035229130503069 ] } },
{ "type": "Feature", "properties": { "NAME": "板橋站", "LOC": "文化路與光正街交叉口", "id": 42 }, "geometry": { "type": "Point", "coordinates": [ 121.462881789857065, 25.014297124383749 ] } },
{ "type": "Feature", "properties": { "NAME": "府中站", "LOC": "台鐵板橋火車站", "id": 43 }, "geometry": { "type": "Point", "coordinates": [ 121.459218919773178, 25.008934844943376 ] } },
{ "type": "Feature", "properties": { "NAME": "亞東醫院站", "LOC": "南雅南路亞東醫院", "id": 44 }, "geometry": { "type": "Point", "coordinates": [ 121.452648875983044, 24.99858902739739 ] } },
{ "type": "Feature", "properties": { "NAME": "土城站", "LOC": "土城中正路與和平路交叉口", "id": 45 }, "geometry": { "type": "Point", "coordinates": [ 121.444451578131833, 24.973226019823802 ] } },
{ "type": "Feature", "properties": { "NAME": "永寧站", "LOC": "土城中央路承天路交叉口", "id": 46 }, "geometry": { "type": "Point", "coordinates": [ 121.436827296366786, 24.96722082392375 ] } },
{ "type": "Feature", "properties": { "NAME": "大坪林站", "LOC": "北新路與民權路交叉口", "id": 47 }, "geometry": { "type": "Point", "coordinates": [ 121.541366034603826, 24.982913833396587 ] } },
{ "type": "Feature", "properties": { "NAME": "景安站", "LOC": "景平路與景安路交口", "id": 48 }, "geometry": { "type": "Point", "coordinates": [ 121.505090778182833, 24.993922031757954 ] } },
{ "type": "Feature", "properties": { "NAME": "新埔站", "LOC": "文化路與民生路交叉口", "id": 49 }, "geometry": { "type": "Point", "coordinates": [ 121.467987028282337, 25.022995948446287 ] } },
{ "type": "Feature", "properties": { "NAME": "善導寺站", "LOC": "忠孝東路與林森路交叉口", "id": 50 }, "geometry": { "type": "Point", "coordinates": [ 121.52334018858312, 25.044813009018629 ] } },
{ "type": "Feature", "properties": { "NAME": "小南門站", "LOC": "愛國西路與博愛路交叉口附近", "id": 51 }, "geometry": { "type": "Point", "coordinates": [ 121.510781764249032, 25.0356727786906 ] } },
{ "type": "Feature", "properties": { "NAME": "中正紀念堂", "LOC": "羅斯福路與愛國東路交叉口 (中央銀行前)", "id": 52 }, "geometry": { "type": "Point", "coordinates": [ 121.517049319552783, 25.034274270193471 ] } },
{ "type": "Feature", "properties": { "NAME": "古亭站", "LOC": "羅斯福路與和平東路交叉口", "id": 53 }, "geometry": { "type": "Point", "coordinates": [ 121.522567940844667, 25.026885634859685 ] } },
{ "type": "Feature", "properties": { "NAME": "忠孝新生站", "LOC": "忠孝東路與新生南路交叉口", "id": 54 }, "geometry": { "type": "Point", "coordinates": [ 121.532918758413089, 25.042354841091846 ] } },
{ "type": "Feature", "properties": { "NAME": "台北車站", "LOC": "台鐵火車站對面之忠孝西路地面下", "id": 55 }, "geometry": { "type": "Point", "coordinates": [ 121.51743802464533, 25.046233083441034 ] } },
{ "type": "Feature", "properties": { "NAME": "西門站", "LOC": "中華路與成都路交叉口", "id": 56 }, "geometry": { "type": "Point", "coordinates": [ 121.508487733598599, 25.042212597086966 ] } },
{ "type": "Feature", "properties": { "NAME": "南港展覽館站", "LOC": "南港研究院路交叉口北側", "id": 57 }, "geometry": { "type": "Point", "coordinates": [ 121.617622492778608, 25.054565679177607 ] } },
{ "type": "Feature", "properties": { "NAME": "大直站", "LOC": "北安路139巷口附近", "id": 58 }, "geometry": { "type": "Point", "coordinates": [ 121.548148559834601, 25.080477334160236 ] } },
{ "type": "Feature", "properties": { "NAME": "西湖站", "LOC": "內湖路一段西湖市場前", "id": 59 }, "geometry": { "type": "Point", "coordinates": [ 121.567212457779334, 25.08216141473812 ] } },
{ "type": "Feature", "properties": { "NAME": "港墘站", "LOC": "內湖高工前", "id": 60 }, "geometry": { "type": "Point", "coordinates": [ 121.575283118433489, 25.079995003678313 ] } },
{ "type": "Feature", "properties": { "NAME": "文德站", "LOC": "文德路101 巷口附近、內湖高中前", "id": 61 }, "geometry": { "type": "Point", "coordinates": [ 121.584968515432237, 25.078533106268441 ] } },
{ "type": "Feature", "properties": { "NAME": "內湖站", "LOC": "金龍路與成功路交叉口附近", "id": 62 }, "geometry": { "type": "Point", "coordinates": [ 121.594205870194557, 25.083505565019742 ] } },
{ "type": "Feature", "properties": { "NAME": "大湖公園站", "LOC": "成功路五段大湖公園旁", "id": 63 }, "geometry": { "type": "Point", "coordinates": [ 121.602312907046709, 25.083808666388887 ] } },
{ "type": "Feature", "properties": { "NAME": "葫洲站", "LOC": "康寧路二段181巷口附近", "id": 64 }, "geometry": { "type": "Point", "coordinates": [ 121.607241545769597, 25.072689271218689 ] } },
{ "type": "Feature", "properties": { "NAME": "東湖站", "LOC": "五分街加油站旁", "id": 65 }, "geometry": { "type": "Point", "coordinates": [ 121.611737232053542, 25.06757795298418 ] } },
{ "type": "Feature", "properties": { "NAME": "南港軟體園區站", "LOC": "南港經貿園區內", "id": 66 }, "geometry": { "type": "Point", "coordinates": [ 121.615954181595015, 25.059898993896311 ] } },
{ "type": "Feature", "properties": { "NAME": "海山站", "LOC": "公館溝與裕民路口海山高工旁", "id": 67 }, "geometry": { "type": "Point", "coordinates": [ 121.448875286152557, 24.985548276090551 ] } },
{ "type": "Feature", "properties": { "NAME": "萬隆站", "LOC": "羅斯福路與萬隆街交叉口附近", "id": 68 }, "geometry": { "type": "Point", "coordinates": [ 121.539002269541754, 25.00196532519859 ] } },
{ "type": "Feature", "properties": { "NAME": "公館站", "LOC": "羅斯福路與舟山路交叉口 (台灣大學旁", "id": 69 }, "geometry": { "type": "Point", "coordinates": [ 121.534347031885574, 25.014707482373044 ] } },
{ "type": "Feature", "properties": { "NAME": "復興崗站", "LOC": "中央北路三段５３巷和原台鐵淡水線交叉口", "id": 70 }, "geometry": { "type": "Point", "coordinates": [ 121.485208135351641, 25.137446811852712 ] } },
{ "type": "Feature", "properties": { "NAME": "七張站", "LOC": "北新路與寶橋路交叉口", "id": 71 }, "geometry": { "type": "Point", "coordinates": [ 121.542910905765993, 24.975082925897691 ] } },
{ "type": "Feature", "properties": { "NAME": "新店市公所", "LOC": "北新路與中華路交叉口 (新店市公所前)", "id": 72 }, "geometry": { "type": "Point", "coordinates": [ 121.541298655934256, 24.967394430808014 ] } },
{ "type": "Feature", "properties": { "NAME": "新店站", "LOC": "北新路台汽客運總站", "id": 73 }, "geometry": { "type": "Point", "coordinates": [ 121.53761004105192, 24.957871647770428 ] } },
{ "type": "Feature", "properties": { "NAME": "南勢角站", "LOC": "台鐵中和貨運站", "id": 74 }, "geometry": { "type": "Point", "coordinates": [ 121.509172646459447, 24.990408531519773 ] } },
{ "type": "Feature", "properties": { "NAME": "永安市場站", "LOC": "永安市場附近", "id": 75 }, "geometry": { "type": "Point", "coordinates": [ 121.511125386970505, 25.002555879534732 ] } },
{ "type": "Feature", "properties": { "NAME": "行天宮站", "LOC": "民生東路與錦州街間之松江路下方", "id": 76 }, "geometry": { "type": "Point", "coordinates": [ 121.53315637381543, 25.057966034949334 ] } },
{ "type": "Feature", "properties": { "NAME": "中山國小站", "LOC": "林森北路與新生北路間之民權東路下方", "id": 77 }, "geometry": { "type": "Point", "coordinates": [ 121.527664472284229, 25.062650999595309 ] } },
{ "type": "Feature", "properties": { "NAME": "台北橋站", "LOC": "三重市重新路一、二段與文化南、北路交叉口兩側", "id": 78 }, "geometry": { "type": "Point", "coordinates": [ 121.499867980261257, 25.062943649795542 ] } },
{ "type": "Feature", "properties": { "NAME": "菜寮站", "LOC": "三重市重新路三段，中正南路高架橋與光明路之間", "id": 79 }, "geometry": { "type": "Point", "coordinates": [ 121.491138318245788, 25.05964833471943 ] } },
{ "type": "Feature", "properties": { "NAME": "三重站", "LOC": "三重市褔音街，重陽路一段與重新路四段交會口至河堤道", "id": 80 }, "geometry": { "type": "Point", "coordinates": [ 121.483946555371517, 25.055599499062524 ] } },
{ "type": "Feature", "properties": { "NAME": "三重國小站", "LOC": "三重市三重國小前之三和路三段", "id": 81 }, "geometry": { "type": "Point", "coordinates": [ 121.497440896474018, 25.069935147639598 ] } },
{ "type": "Feature", "properties": { "NAME": "三和國中站", "LOC": "三重市三和國中前之三和路四段", "id": 82 }, "geometry": { "type": "Point", "coordinates": [ 121.486347260470026, 25.076807791284711 ] } },
{ "type": "Feature", "properties": { "NAME": "徐匯中學站", "LOC": "蘆洲市集賢路與中山一路交叉口", "id": 83 }, "geometry": { "type": "Point", "coordinates": [ 121.479616095318434, 25.080741786677233 ] } },
{ "type": "Feature", "properties": { "NAME": "三民高中站", "LOC": "蘆洲市三民路與復興路口", "id": 84 }, "geometry": { "type": "Point", "coordinates": [ 121.473240934344076, 25.085670389689309 ] } },
{ "type": "Feature", "properties": { "NAME": "蘆洲站", "LOC": "蘆洲市三民路與中正路交會路口東北側", "id": 85 }, "geometry": { "type": "Point", "coordinates": [ 121.464357337130181, 25.091563669599541 ] } },
{ "type": "Feature", "properties": { "NAME": "輔大站", "LOC": "新莊市中正路輔仁大學校園東側", "id": 86 }, "geometry": { "type": "Point", "coordinates": [ 121.435812419816301, 25.032768730074899 ] } },
{ "type": "Feature", "properties": { "NAME": "先嗇宮站", "LOC": "三重市重新路五段與光復路交會口", "id": 87 }, "geometry": { "type": "Point", "coordinates": [ 121.472122793616933, 25.046526870908359 ] } },
{ "type": "Feature", "properties": { "NAME": "頭前庄站", "LOC": "新莊市中正路近思源路口", "id": 88 }, "geometry": { "type": "Point", "coordinates": [ 121.461624559152995, 25.039607331082763 ] } },
{ "type": "Feature", "properties": { "NAME": "新莊站", "LOC": "新莊市新莊國中前之中正路", "id": 89 }, "geometry": { "type": "Point", "coordinates": [ 121.452317896756512, 25.036147908704098 ] } },
{ "type": "Feature", "properties": { "NAME": "小碧潭站", "LOC": "新店機場", "id": 90 }, "geometry": { "type": "Point", "coordinates": [ 121.53529784254448, 24.969554205353429 ] } },
{ "type": "Feature", "properties": { "NAME": "松山機場站", "LOC": "松山機場(敦化北路340之9號)", "id": 91 }, "geometry": { "type": "Point", "coordinates": [ 121.551635110465369, 25.063104462027724 ] } },
{ "type": "Feature", "properties": { "NAME": "大橋頭站", "LOC": "民權西路大橋國小旁", "id": 92 }, "geometry": { "type": "Point", "coordinates": [ 121.512848779450636, 25.062922384403794 ] } },
{ "type": "Feature", "properties": { "NAME": "東門站", "LOC": "金山南路與永康街間之信義路下方(交會站)", "id": 93 }, "geometry": { "type": "Point", "coordinates": [ 121.528321773158368, 25.033927618168107 ] } },
{ "type": "Feature", "properties": { "NAME": "劍南路站", "LOC": "北安路821巷口附近", "id": 94 }, "geometry": { "type": "Point", "coordinates": [ 121.555607153589506, 25.084898456471532 ] } },
{ "type": "Feature", "properties": { "NAME": "迴龍站", "LOC": "新莊市中正路與中山路交會口，省立樂生療養院前", "id": 95 }, "geometry": { "type": "Point", "coordinates": [ 121.412662793256672, 25.022517157057685 ] } },
{ "type": "Feature", "properties": { "NAME": "丹鳳站", "LOC": "新莊市中正路與民安路交會口", "id": 96 }, "geometry": { "type": "Point", "coordinates": [ 121.422699072520118, 25.028921091574237 ] } },
{ "type": "Feature", "properties": { "NAME": "台北101世貿站", "LOC": "信義路世貿中心旁", "id": 97 }, "geometry": { "type": "Point", "coordinates": [ 121.563490094538864, 25.032979479154786 ] } },
{ "type": "Feature", "properties": { "NAME": "大安森林公園站", "LOC": "信義路三段大安森林公園內(建國南路與新生南路間,經濟", "id": 98 }, "geometry": { "type": "Point", "coordinates": [ 121.53530802843143, 25.033535251072948 ] } },
{ "type": "Feature", "properties": { "NAME": "信義安和站", "LOC": "信義安和路口", "id": 99 }, "geometry": { "type": "Point", "coordinates": [ 121.553232530756745, 25.033150042546502 ] } },
{ "type": "Feature", "properties": { "NAME": "象山站", "LOC": "松仁路與信義路五段91巷間", "id": 100 }, "geometry": { "type": "Point", "coordinates": [ 121.570666336911785, 25.032793324340407 ] } },
{ "type": "Feature", "properties": { "NAME": "南京復興站", "LOC": "復興北路與南京東路交叉口(松山線)", "id": 101 }, "geometry": { "type": "Point", "coordinates": [ 121.543576861092575, 25.05186980610506 ] } },
{ "type": "Feature", "properties": { "NAME": "松江南京站", "LOC": "松江路與南京東路交叉口(松山線)", "id": 102 }, "geometry": { "type": "Point", "coordinates": [ 121.53304925954896, 25.052024514344058 ] } },
{ "type": "Feature", "properties": { "NAME": "松山站", "LOC": "臺鐵松山站前八德路4段下方", "id": 103 }, "geometry": { "type": "Point", "coordinates": [ 121.577733392376501, 25.050001706485329 ] } },
{ "type": "Feature", "properties": { "NAME": "南京三民站", "LOC": "南京東路5段與三民路口", "id": 104 }, "geometry": { "type": "Point", "coordinates": [ 121.564396882840427, 25.051436320911929 ] } },
{ "type": "Feature", "properties": { "NAME": "台北小巨蛋站", "LOC": "台北小巨蛋西北側", "id": 105 }, "geometry": { "type": "Point", "coordinates": [ 121.552003155287608, 25.051647242186281 ] } },
{ "type": "Feature", "properties": { "NAME": "北門站", "LOC": "塔城街", "id": 106 }, "geometry": { "type": "Point", "coordinates": [ 121.510278645911328, 25.049294237623901 ] } },
{ "type": "Feature", "properties": { "NAME": "頂埔站", "LOC": "約在新北市土城區中央路四段53號(鴻海精密工業公司前)", "id": 107 }, "geometry": { "type": "Point", "coordinates": [ 121.418881503349979, 24.95943269330898 ] } }
]
}
